supplier,region,province,site_name,site_id,province_id,location_id,ccpero,red_id,orden_id,longitude,latitude,utm_easting,utm_northing,s2cell_18,node_name,root_element,cell_name,egnodeb_rnc_id,bsc_rnc,mcc,mnc,lac_tac,ci,bsic_sc_pci,dl_arfcn,tch_list,azimuth,beamwidth,transmit_power,antenna_model,dw_mechanical,dw_electrical,height,is_active,band,is_indoor,is_small_cell,sector_type,town,sector_id,tech_id,cgi_tech,pilot_power,dl_bwidth,registration_date,mo_ref,mo_ref_keys,dl_arfcn_ssb
nokia,GRLevante,ALICANTE,ATW-V 42375 ALCOY/MOLINAR EB,300167,3,167,3 167 64 1,64,1,-0.48528782,38.69355,718705,4285772,0d6187ab2f,GNB_A_ALCOY_MOLINAR_EB_01,MRBTS-1030201,ALCOY_MOLINAR_EB_0300167640103,30201,,214,7,3610,2003,119,432500,,240,60,44.5,CV3PX310R1_2100_0,0.0,0.0,27.0,1,2100,0,0,IOT800-G900-U900-L800-L1800-N2100,ALCOY/ALCOI,3001673,5,4948151875,,15000,2026-03-10T09:12:10.4822280Z,PLMN-PLMN/MRBTS-1030201/NRBTS-30201/NRCELL-2003,PLMN/MRBTS/NRBTS/NRCELL,432290
nokia,GRSur,ALMERIA,ADRA CT,400022,4,22,4 22 68 1,68,1,-3.0141482,36.747894,498737,4066906,0d704e0117,GNB_AL_ADRA_CT_01,MRBTS-1040075,ADRA_CT_0400022680101,40075,,214,7,4041,1,775,636666,,335,60,34.9,AEQE_120_6_1,0.0,6.0,27.0,1,3500,0,0,IOT800-G900-U900-L800-L900-L1800-L2600-N700-N2100-N3500,ADRA,4000221,5,6565888015,,100000,2026-03-10T09:12:10.4822280Z,PLMN-PLMN/MRBTS-1040075/NRBTS-40075/NRCELL-1,PLMN/MRBTS/NRBTS/NRCELL,633984
nokia,GRCyL,AVILA,AV-AVILA ER,500001,5,1,5 1 64 1,64,1,-4.659289,40.6578,359729,4502094,0d40f3cc1f,GNB_AV_AV_AVILA_ER_02,MRBTS-1050008,AVILA_ER_0500001640103,50008,,214,7,5600,2003,260,432500,,240,65,44.5,ASI4518R39v06_2100_7,0.0,8.0,37.0,1,2100,0,0,IOT800-G900-U900-L800-L900-L1800-L2600-N700-N2100-N3500,AVILA,5000013,5,8193330755,,15000,2026-03-10T09:12:10.4822280Z,PLMN-PLMN/MRBTS-1050008/NRBTS-50008/NRCELL-2003,PLMN/MRBTS/NRBTS/NRCELL,432290
nokia,GRCyL,BURGOS,BARRIADA M.ILLERA,900368,9,368,9 368 60 1,60,1,-3.6801238,42.36536,443997,4690567,0d45fc8d77,GNB_BU_BARRIADA_M_ILLERA_02,MRBTS-1090014,BARRIADA_M_ILLERA_0900368600101,90014,,214,7,9600,1001,92,156600,,90,70,42.7,ASI4518R39v06_700_10,0.0,10.0,38.0,1,700,0,0,IOT800-G900-U900-L800-L900-L1800-L2600-N700-N3500,BURGOS,9003681,5,14747903775,,10000,2026-03-10T09:12:10.4822280Z,PLMN-PLMN/MRBTS-1090014/NRBTS-90014/NRCELL-1001,PLMN/MRBTS/NRBTS/NRCELL,156510
nokia,GRSur,CADIZ,ATW-T 63087 ALGECIRAS SALAD. C,1100019,11,19,11 19 60 1,60,1,-5.451469,36.11663,279360,3999668,0d0c94e9f7,GNB_CA_ALGECIRAS_SALAD_C_01,MRBTS-110090,ALGECIRAS_SALAD_C_1100019600101,110001,,214,7,11080,1001,202,156600,,0,70,42.7,RRV4-65D-R6_700_4,0.0,4.0,25.0,1,700,0,0,IOT800-G900-U900-L800-L900-L1800-L2600-N700-N2100-N3500,ALGECIRAS,11000191,5,18022573855,,10000,2026-03-10T09:12:10.4822280Z,PLMN-PLMN/MRBTS-110090/NRBTS-110001/NRCELL-1001,PLMN/MRBTS/NRBTS/NRCELL,156510
nokia,GRSur,CADIZ,AGUA CLARA,1100390,11,390,11 390 60 1,60,1,-5.457882,36.141666,278853,4002460,0d0ceb4a8b,GNB_CA_AGUA_CLARA_02,MRBTS-110104,AGUA_CLARA_1100390600103,110123,,214,7,11080,1003,174,156600,,280,68,42.7,TNA490A70RI01_700_5,0.0,5.0,33.0,1,700,0,0,IOT800-G900-U900-L800-L900-L1800-L2600-N700-N2100-N3500,ALGECIRAS,11003903,5,18042562355,,10000,2026-03-10T09:12:10.4822280Z,PLMN-PLMN/MRBTS-110104/NRBTS-110123/NRCELL-1003,PLMN/MRBTS/NRBTS/NRCELL,156510
nokia,GRSur,CADIZ,ALCALÁ VALLE EB,1100099,11,99,11 99 68 1,68,1,-5.1672287,36.903843,306913,4086399,0d0d4915ad,GNB_CA_ALCALA_VALLE_EB_01,MRBTS-110227,ALCALA_VALLE_EB_1100099680101,110497,,214,7,11600,1,627,636666,,0,90,37.9,AEQE_120_6_0,0.0,2.5,32.8,1,3500,0,0,IOT800-G900-U900-L800-L900-L1800-N700-N3500,ALCALA DEL VALLE,11000991,5,18103828495,,100000,2026-03-10T09:12:10.4822280Z,PLMN-PLMN/MRBTS-110227/NRBTS-110497/NRCELL-1,PLMN/MRBTS/NRBTS/NRCELL,633984
nokia,GRSur,CADIZ,BARBATE EL OLIVAR,1101080,11,1080,11 1080 60 1,60,1,-5.92708,36.207146,236846,4010897,0d0c449c43,GNB_CA_BARBATE_EL_OLIVAR_01,MRBTS-110327,BARBATE_EL_OLIVAR_1101080600102,110296,,214,7,11071,1002,126,156600,,160,68,42.7,RRV4-65B-R6N43_700_4,0.0,4.0,33.0,1,700,0,0,IOT800-G900-U900-L800-L900-L1800-N700-N3500,BARBATE,11010802,5,18070906665,,10000,2026-03-10T09:12:10.4822280Z,PLMN-PLMN/MRBTS-110327/NRBTS-110296/NRCELL-1002,PLMN/MRBTS/NRBTS/NRCELL,156510
nokia,GRSur,CADIZ,AL SUR APARTAMENTOS LA BARROSA,1101618,11,1618,11 1618 60 1,60,1,-6.184022,36.374878,214352,4030239,0d0c33c55b,GNB_CA_AL_SUR_APARTAMENTOS_LA_BA_01,MRBTS-110754,AL_SUR_APARTAMENTOS_L_1101618600102,110505,,214,7,11070,1002,452,156600,,180,70,44.5,ASI4518R39v07_700_6,0.0,6.0,15.0,1,700,0,0,IOT800-U900-L800-L900-L1800-N700,,11016182,5,18105149225,,10000,2026-03-10T09:12:10.4822280Z,PLMN-PLMN/MRBTS-110754/NRBTS-110505/NRCELL-1002,PLMN/MRBTS/NRBTS/NRCELL,156510
nokia,GRLevante,CASTELLON,ATW-V 42849 ALMENARA EB,1200134,12,134,12 134 68 1,68,1,-0.22292984,39.754723,737913,4404223,0d60115fd9,GNB_CS_ALMENARA_EB_01,MRBTS-120084,ALMENARA_EB_1200134680143,120026,,214,7,12604,16043,623,632000,,290,90,30.9,,0.0,4.0,21.45,0,3500,0,0,IOT800-G900-U900-L800-L900-L1800-L2100-L2600-N700-N2100-N3500,ALMENARA,12001343,5,19665220275,,40000,2026-03-10T09:12:10.4822280Z,PLMN-PLMN/MRBTS-120084/NRBTS-120026/NRCELL-16043,PLMN/MRBTS/NRBTS/NRCELL,
nokia,GRLevante,CASTELLON,ATW-V 42844 ALMASSORA VELLA,1200147,12,147,12 147 68 1,68,1,-0.060147177,39.94083,751181,4425329,0d6000df4f,GNB_CS_ALMASSORA_VELLA_02,MRBTS-120150,ALMASSORA_VELLA_1200147680102,120047,,214,7,12604,2,766,636666,,165,60,34.9,AEQE_120_6_-1,0.0,5.0,22.8,1,3500,0,0,IOT800-G900-U900-L800-L900-L1800-L2600-N700-N2100-N3500,ALMAZORA/ALMASSORA,12001472,5,19668500505,,100000,2026-03-10T09:12:10.4822280Z,PLMN-PLMN/MRBTS-120150/NRBTS-120047/NRCELL-2,PLMN/MRBTS/NRBTS/NRCELL,633984
nokia,GRLevante,CASTELLON,ATW-V 42843 ALCORA FOYES FERR,1200150,12,150,12 150 68 1,68,1,-0.18310988,40.0606,740253,4438286,0d5fe37e89,GNB_CS_ALCORA_FOYES_FERR_01,MRBTS-120259,ALCORA_FOYES_FERR_1200150680101,120112,,214,7,12603,1,720,636666,,0,60,34.9,AEQE_120_6_-4,2.0,2.0,37.88,1,3500,0,0,IOT800-G900-U900-L800-L900-L1800-N700-N3500,ALCORA (L\'),12001501,5,19679150095,,100000,2026-03-10T09:12:10.4822280Z,PLMN-PLMN/MRBTS-120259/NRBTS-120112/NRCELL-1,PLMN/MRBTS/NRBTS/NRCELL,633984
nokia,GRLevante,CASTELLON,ATW-T 63117 ALCOCEBRE CT,1200037,12,37,12 37 64 1,64,1,0.27624208,40.24436,778685,4460030,12a015c12d,GNB_CS_ALCOCEBRE_CT_01,MRBTS-120266,ALCOCEBRE_CT_1200037640101,120007,,214,7,12605,2001,21,432500,,50,65,44.5,ASI4518R39v06_2100_12,0.0,10.0,30.0,1,2100,0,0,IOT800-G900-U900-L800-L900-L1800-L2100-L2600-N700-N2100-N3500,ALCALA DE XIVERT,12000371,5,19661966895,,15000,2026-03-10T09:12:10.4822280Z,PLMN-PLMN/MRBTS-120266/NRBTS-120007/NRCELL-2001,PLMN/MRBTS/NRBTS/NRCELL,432290
nokia,GRLevante,CASTELLON,BENICARLO CT,1200015,12,15,12 15 64 1,64,1,0.42698303,40.420708,790751,4480095,12a045a351,GNB_CS_BENICARLO_CT_02,MRBTS-120282,BENICARLO_CT_1200015640103,120062,,214,7,12605,2003,196,432500,,240,65,44.5,ASI4518R39v06_2100_7,0.0,7.0,30.3,1,2100,0,0,IOT800-G900-U900-L800-L900-L1800-L2100-L2600-N700-N2100-N3500,BENICARLO,12000153,5,19670978115,,15000,2026-03-10T09:12:10.4822280Z,PLMN-PLMN/MRBTS-120282/NRBTS-120062/NRCELL-2003,PLMN/MRBTS/NRBTS/NRCELL,432290
nokia,GRSur,CORDOBA,BELALCÁZAR EB,1400170,14,170,14 170 68 1,68,1,-5.171506,38.58123,310852,4272543,0d14a909d7,GNB_CO_BELALCAZAR_EB_01,MRBTS-140016,BELALCAZAR_EB_1400170680101,140004,,214,7,14601,1,723,636666,,25,90,37.9,AEQE_120_6_0,0.0,4.5,24.0,1,3500,0,0,IOT800-G900-U900-L800-L900-L1800-L2600-N700-N2100-N3500,BELALCAZAR,14001701,5,22938255375,,100000,2026-03-10T09:12:10.4822280Z,PLMN-PLMN/MRBTS-140016/NRBTS-140004/NRCELL-1,PLMN/MRBTS/NRBTS/NRCELL,633984
nokia,GRSur,CORDOBA,AVE POSAD/CERR HUERT,1400065,14,65,14 65 68 1,68,1,-5.0993624,37.81293,315204,4187136,0d12d4f7ad,GNB_CO_AVE_POSAD_CERR_HUERT_01,MRBTS-140165,AVE_POSAD_CERR_HUERT_1400065680104,140064,,214,7,14602,4,153,636666,,255,60,34.9,AEQE_120_6_-3,0.0,4.0,35.0,1,3500,0,0,IOT800-G900-U900-L800-L900-L1800-L2100-N700-N2100-N3500,POSADAS,14000654,5,22948085805,,100000,2026-03-10T09:12:10.4822280Z,PLMN-PLMN/MRBTS-140165/NRBTS-140064/NRCELL-4,PLMN/MRBTS/NRBTS/NRCELL,633984
nokia,GRSur,CORDOBA,AVE LA BARQUERA EB,1400063,14,63,14 63 60 1,60,1,-4.87765,37.85861,334824,4191789,0d6d27ea2f,GNB_CO_AVE_LA_BARQUERA_EB_01,MRBTS-140185,AVE_LA_BARQUERA_EB_1400063600102,140049,,214,7,14061,1002,22,156600,,65,66,46.0,4C+3X26_COMMSCOPE_65_3_15_800,0.0,3.0,28.0,1,700,0,0,IOT800-G900-U900-L800-L900-L1800-L2100-L2600-N700-N2100-N3500,CORDOBA,14000632,5,22945638185,,10000,2026-03-10T09:12:10.4822280Z,PLMN-PLMN/MRBTS-140185/NRBTS-140049/NRCELL-1002,PLMN/MRBTS/NRBTS/NRCELL,156510
nokia,GRCyL,SORIA,AGREDA,4200029,42,29,42 29 64 1,64,1,-1.917605,41.84942,589853,4633624,0d5b03db7b,GNB_SO_AGREDA_01,MRBTS-1420004,AGREDA_4200029640101,420004,,214,7,42600,2001,769,432500,,330,68,44.5,CCVVPX308.11R_2100_8,0.0,8.0,28.0,1,2100,0,0,IOT800-G900-U900-L800-L1800-L2600-N2100,AGREDA,42000291,5,68813475375,,15000,2026-03-10T09:12:10.4822280Z,PLMN-PLMN/MRBTS-1420004/NRBTS-420004/NRCELL-2001,PLMN/MRBTS/NRBTS/NRCELL,432290
nokia,GRGaliciaAsturias,A CORUNA,AMES/CAMPO DE FUTBOL,1501751,15,1751,15 1751 60 1,60,1,-8.6601515,42.88766,37755,4763905,0d2ee32ad3,GNB_C_AMES_CAMPO_DE_FUTBOL_01,MRBTS-150023,AMES_CAMPO_DE_FUTBOL_1501751600102,150166,,214,7,15711,1002,799,156600,,100,73,42.7,6878300G_700_5,0.0,5.0,34.0,1,700,0,0,IOT800-U900-L800-L900-L1800-N700,AMES,15017512,5,24603207465,,10000,2026-03-10T09:12:10.4822280Z,PLMN-PLMN/MRBTS-150023/NRBTS-150166/NRCELL-1002,PLMN/MRBTS/NRBTS/NRCELL,156510
nokia,GRGaliciaAsturias,A CORUNA,ATW-T 63187 ARTEIXO CT,1500042,15,42,15 42 68 1,68,1,-8.507959,43.306335,53251,4809586,0d2e886b63,GNB_C_ARTEIXO_CT_02,MRBTS-150051,ARTEIXO_CT_1500042680102,150142,,214,7,15632,2,202,636666,,80,60,34.9,AEQE_120_6_0,0.0,5.0,31.0,1,3500,0,0,IOT800-G900-U900-L800-L900-L1800-L2100-L2600-N700-N2100-N3500,ARTEIXO,15000422,5,24599265305,,100000,2026-03-10T09:12:10.4822280Z,PLMN-PLMN/MRBTS-150051/NRBTS-150142/NRCELL-2,PLMN/MRBTS/NRBTS/NRCELL,633984
nokia,GRGaliciaAsturias,A CORUNA,ATW-T 63226 AGUIÑO CT,1500432,15,432,15 432 68 1,68,1,-9.013699,42.525143,5997,4725642,0d2f37f591,GNB_C_AGUINO_CT_01,MRBTS-150171,AGUINO_CT_1500432680101,150115,,214,7,15712,1,773,636666,,50,60,34.9,AEQE_120_6_-1,0.0,5.0,19.6,1,3500,0,0,IOT800-G900-U900-L800-L900-L1800-L2600-N700-N2100-N3500,RIBEIRA,15004321,5,24594841615,,100000,2026-03-10T09:12:10.4822280Z,PLMN-PLMN/MRBTS-150171/NRBTS-150115/NRCELL-1,PLMN/MRBTS/NRBTS/NRCELL,633984
nokia,GRGaliciaAsturias,A CORUNA,ABOI,1500201,15,201,15 201 64 1,64,1,-8.21014,43.048645,75625,4779407,0d2e4611e3,GNB_C_ABOI_01,MRBTS-150317,ABOI_1500201640102,150555,,214,7,15700,2002,700,432500,,105,65,44.5,ASI4517R1_2100_2,0.0,2.0,37.0,1,2100,0,0,IOT800-U900-L800-L1800-L2600-N2100,MESIA,15002012,5,24666951225,,15000,2026-03-10T09:12:10.4822280Z,PLMN-PLMN/MRBTS-150317/NRBTS-150555/NRCELL-2002,PLMN/MRBTS/NRBTS/NRCELL,432290
nokia,GRGaliciaAsturias,A CORUNA,ARTEIXO/CLUB GOLF,1502602,15,2602,15 2602 68 1,68,1,-8.520262,43.265854,51955,4805155,0d2e89a3a1,GNB_C_ARTEIXO_CLUB_GOLF_01,MRBTS-150450,ARTEIXO_CLUB_GOLF_1502602680103,150237,,214,7,15632,3,507,636666,,245,60,34.9,AEQE_120_6_0,0.0,3.0,34.0,1,3500,0,0,IOT800-U900-L800-L900-L1800-N700-N3500,ARTEIXO,15026023,5,24614830115,,100000,2026-03-10T09:12:10.4822280Z,PLMN-PLMN/MRBTS-150450/NRBTS-150237/NRCELL-3,PLMN/MRBTS/NRBTS/NRCELL,633984
nokia,GRSur,GRANADA,ATW-T 63271 ALMUÑECAR CT,1800039,18,39,18 39 64 1,64,1,-3.6923215,36.73575,438187,4065782,0d71889007,GNB_GR_ALMUNECAR_CT_02,MRBTS-180068,ALMUNECAR_CT_1800039640101,180026,,214,7,18050,2001,266,432500,,0,62,44.5,RRV4-65B-R6H4-V2_2100_2,0.0,2.0,30.0,1,2100,0,0,IOT800-G900-U900-L800-L900-L1800-L2100-L2600-N700-N2100-N3500,ALMUÐECAR,18000391,5,29495479855,,15000,2026-03-10T09:12:10.4822280Z,PLMN-PLMN/MRBTS-180068/NRBTS-180026/NRCELL-2001,PLMN/MRBTS/NRBTS/NRCELL,432290
nokia,GRSur,JAEN,BAEZA-ACADEMIA EB,2300133,23,133,23 133 68 1,68,1,-3.4805813,37.999767,457806,4205898,0d6e8bed37,GNB_J_BAEZA_ACADEMIA_EB_01,MRBTS-230046,BAEZA_ACADEMIA_EB_2300133680103,230007,,214,7,23060,3,46,636666,,180,60,34.9,AEQE_120_6_7,0.0,12.0,38.0,1,3500,0,0,IOT800-G900-U900-L800-L900-L1800-L2600-N700-N2100-N3500,BAEZA,23001333,5,37684346915,,100000,2026-03-10T09:12:10.4822280Z,PLMN-PLMN/MRBTS-230046/NRBTS-230007/NRCELL-3,PLMN/MRBTS/NRBTS/NRCELL,633984
nokia,GRSur,JAEN,ATW-V 43131 BAILEN-LAS AGUAS,2300040,23,40,23 40 60 1,60,1,-3.7963126,38.097496,430178,4216932,0d6c263ad1,GNB_J_BAILEN_LAS_AGUAS_01,MRBTS-230075,BAILEN_LAS_AGUAS_2300040600101,230063,,214,7,23060,1001,593,156600,,40,68,44.5,RRV4-65B-R6N43_700_6,0.0,6.0,40.0,1,700,0,0,IOT800-G900-U900-L800-L900-L1800-N700,BAILEN,23000401,5,37693531935,,10000,2026-03-10T09:12:10.4822280Z,PLMN-PLMN/MRBTS-230075/NRBTS-230063/NRCELL-1001,PLMN/MRBTS/NRBTS/NRCELL,156510
nokia,GRSur,JAEN,ANDUJAR SAN CRISTOBAL,2300084,23,84,23 84 64 1,64,1,-4.0457873,38.04135,408233,4210919,0d6c37b69d,GNB_J_ANDUJAR_SAN_CRISTOBAL_01,MRBTS-230086,ANDUJAR_SAN_CRISTOBAL_2300084640102,230028,,214,7,23063,2002,166,432500,,220,67,46.5,6876300NG_2100_8,0.0,8.0,36.0,1,2100,0,0,IOT800-U900-L800-L900-L1800-L2100-L2600-N700-N2100-N3500,ANDUJAR,23000842,5,37687807545,,15000,2026-03-10T09:12:10.4822280Z,PLMN-PLMN/MRBTS-230086/NRBTS-230028/NRCELL-2002,PLMN/MRBTS/NRBTS/NRCELL,432290
nokia,GRSur,JAEN,ARQUILLOS,2300113,23,113,23 113 60 1,60,1,-3.424225,38.17937,462845,4225802,0d6e93542f,GNB_J_ARQUILLOS_01,MRBTS-230199,ARQUILLOS_2300113600103,230220,,214,7,23062,1003,149,156600,,300,70,42.7,RRV4-65D-R6_700_7,0.0,7.0,35.0,1,700,0,0,IOT800-G900-U900-L800-L900-L1800-N700-N3500,ARQUILLOS,23001133,5,37719254835,,10000,2026-03-10T09:12:10.4822280Z,PLMN-PLMN/MRBTS-230199/NRBTS-230220/NRCELL-1003,PLMN/MRBTS/NRBTS/NRCELL,156510
nokia,GRSur,MALAGA,ALHAURIN GRANDE PUEBLO,2901152,29,1152,29 1152 64 1,64,1,-4.671977,36.646477,350542,4056958,0d72e6f617,GNB_MA_ALHAURIN_GRANDE_PUEBLO_01,MRBTS-290298,ALHAURIN_GRANDE_PUEBL_2901152640101,290109,,214,7,29042,2001,414,432500,,70,62,48.9,,0.0,4.0,25.0,1,2100,0,0,IOT800-G900-U900-L800-L1800-L2600-N2100,ALHAURIN EL GRANDE,29011521,5,47531478575,,15000,2026-03-10T09:12:10.4822280Z,PLMN-PLMN/MRBTS-290298/NRBTS-290109/NRCELL-2001,PLMN/MRBTS/NRBTS/NRCELL,432290
nokia,GRSur,MALAGA,ALBORAN HILL,2901721,29,1721,29 1721 68 1,68,1,-5.243051,36.334553,298681,4023392,0d0cdab991,GNB_MA_ALBORAN_HILL_01,MRBTS-290553,ALBORAN_HILL_2901721680103,290301,,214,7,29070,3,722,636666,,240,60,34.9,AEQE_120_6_-3,0.0,3.0,19.5,1,3500,0,0,IOT800-U900-L800-L900-L1800-N700-N3500,MANILVA,29017213,5,47562915875,,100000,2026-03-10T09:12:10.4822280Z,PLMN-PLMN/MRBTS-290553/NRBTS-290301/NRCELL-3,PLMN/MRBTS/NRBTS/NRCELL,633984
nokia,GRSur,MALAGA,BENALM LA MORERA,2901715,29,1715,29 1715 60 1,60,1,-4.585422,36.58,358158,4049452,0d72e31663,GNB_MA_BENALM_LA_MORERA_01,MRBTS-290591,BENALM_LA_MORERA_2901715600103,290519,,214,7,29060,1003,27,156600,,230,68,44.5,RRV4-65B-R6N43_700_8,0.0,8.0,34.0,1,700,0,0,IOT800-U900-L800-L900-L1800-N700,BENALMADENA,29017153,5,47598642995,,10000,2026-03-10T09:12:10.4822280Z,PLMN-PLMN/MRBTS-290591/NRBTS-290519/NRCELL-1003,PLMN/MRBTS/NRBTS/NRCELL,156510
nokia,GRLevante,MURCIA,ALCAZARES/INDUSTRIAL,3002257,30,2257,30 2257 60 1,60,1,-0.8856174,37.73575,686312,4178601,0d631369f3,GNB_MU_ALCAZARES_INDUSTRIAL_01,MRBTS-300334,ALCAZARES_INDUSTRIAL_3002257600103,300199,,214,7,30643,1003,458,156600,,240,70,42.7,RRV4-65D-R6_700_5,0.0,5.0,54.0,1,700,0,0,IOT800-U900-L800-L900-L1800-N700,,30022573,5,49184614195,,10000,2026-03-10T09:12:10.4822280Z,PLMN-PLMN/MRBTS-300334/NRBTS-300199/NRCELL-1003,PLMN/MRBTS/NRBTS/NRCELL,156510
nokia,GRLevante,MURCIA,ATW-V 44225 ALCANTARILLA/AYUN,3000129,30,129,30 129 68 1,68,1,-1.2102432,37.971935,657202,4204212,0d637fff87,GNB_MU_ALCANTARILLA_AYUN_02,MRBTS-300634,ALCANTARILLA_AYUN_3000129680101,300072,,214,7,30644,1,273,636666,,310,60,34.9,AEQE_120_6_-2,0.0,1.0,30.43,1,3500,0,0,IOT800-G900-U900-L800-L900-L1800-N700-N2100-N3500,ALCANTARILLA,30001291,5,49163796495,,100000,2026-03-10T09:12:10.4822280Z,PLMN-PLMN/MRBTS-300634/NRBTS-300072/NRCELL-1,PLMN/MRBTS/NRBTS/NRCELL,633984
nokia,GRLevante,MURCIA,ATW-V 44225 ALCANTARILLA/AYUN,3000129,30,129,30 129 64 1,64,1,-1.2102432,37.971935,657202,4204212,0d637fff87,GNB_MU_ALCANTARILLA_AYUN_02,MRBTS-300634,ALCANTARILLA_AYUN_3000129640102,300072,,214,7,30644,2002,295,432500,,80,61,44.5,RRV4-65A-R6_2100_5,2.0,5.0,28.1,1,2100,0,0,IOT800-G900-U900-L800-L900-L1800-N700-N2100-N3500,ALCANTARILLA,30001292,5,49163816505,,15000,2026-03-10T09:12:10.4822280Z,PLMN-PLMN/MRBTS-300634/NRBTS-300072/NRCELL-2002,PLMN/MRBTS/NRBTS/NRCELL,432290
nokia,GRLevante,ALICANTE,ADSUBIA DEPURADORA,301195,3,1195,3 1195 60 1,60,1,-0.14644274,38.84609,747651,4303567,0d61e56165,GNB_A_ADSUBIA_DEPURADORA_01,MRBTS-30737,ADSUBIDEPURADORA_0301195600131,30547,,214,7,3612,11001,514,154600,,285,89,47.6,,0.0,2.0,27.3,1,700,0,0,IOT800-G900-U900-L800-L900-N700,ADSUBIA,3011951,5,5004930495,,30000,2026-03-10T09:12:10.4822280Z,PLMN-PLMN/MRBTS-30737/NRBTS-30547/NRCELL-11001,PLMN/MRBTS/NRBTS/NRCELL,
nokia,GRGaliciaAsturias,OURENSE,BARONZAS EB,3200060,32,60,32 60 68 1,68,1,-7.709964,42.066326,110292,4667885,0d3ab3efe3,GNB_OU_BARONZAS_EB_02,MRBTS-320021,BARONZAS_EB_3200060680142,320019,,214,7,32623,16042,943,632000,,120,90,30.9,,0.0,3.0,39.0,0,3500,0,0,IOT800-G900-U900-L800-L900-L1800-L2100-L2600-N700-N2100-N3500,BARCO DE VALDEORRAS (O),32000602,5,52432073385,,40000,2026-03-10T09:12:10.4822280Z,PLMN-PLMN/MRBTS-320021/NRBTS-320019/NRCELL-16042,PLMN/MRBTS/NRBTS/NRCELL,
nokia,GRGaliciaAsturias,ASTURIAS,BARCIA,3300160,33,160,33 160 60 1,60,1,-6.4710493,43.53705,219548,4826311,0d31547349,GNB_O_BARCIA_01,MRBTS-330078,BARCIA_3300160600102,330036,,214,7,33150,1002,737,156600,,100,70,42.7,ASI4518R39v07_700_3,0.0,3.0,38.0,1,700,0,0,IOT800-G900-U900-L800-L900-L1800-N700-N2100-N3500,VALDES,33001602,5,54073108265,,10000,2026-03-10T09:12:10.4822280Z,PLMN-PLMN/MRBTS-330078/NRBTS-330036/NRCELL-1002,PLMN/MRBTS/NRBTS/NRCELL,156510
nokia,GRGaliciaAsturias,ASTURIAS,ACEBAL EB,3300133,33,133,33 133 64 1,64,1,-4.736285,43.40626,359413,4807395,0d49eac839,GNB_O_ACEBAL_EB_03,MRBTS-330130,ACEBAL_EB_3300133640103,330270,,214,7,33140,2003,477,432500,,150,63,44.5,RVVPX306.11R-V2_2100_4,0.0,4.0,38.0,1,2100,0,0,IOT800-U900-L800-L900-L1800-L2100-L2600-N700-N2100-N3500,LLANES,33001333,5,54111456835,,15000,2026-03-10T09:12:10.4822280Z,PLMN-PLMN/MRBTS-330130/NRBTS-330270/NRCELL-2003,PLMN/MRBTS/NRBTS/NRCELL,432290
nokia,GRCyL,PALENCIA,AYUELA,3400145,34,145,34 145 60 1,60,1,-4.6494474,42.630558,364752,4721109,0d486de127,GNB_P_AYUELA_01,MRBTS-340000,AYUELA_3400145600133,340105,,214,7,34602,11003,490,154600,,280,65,47.6,,0.0,2.0,27.3,1,700,0,0,IOT800-G900-U900-L800-L900-L1800-N700,AYUELA,34001453,5,55722913235,,30000,2026-03-10T09:12:10.4822280Z,PLMN-PLMN/MRBTS-340000/NRBTS-340105/NRCELL-11003,PLMN/MRBTS/NRBTS/NRCELL,
nokia,GRGaliciaAsturias,PONTEVEDRA,BAIONA/VISTA REAL,3601322,36,1322,36 1322 60 1,60,1,-8.848635,42.11563,16423,4679197,0d25f34613,GNB_PO_BAIONA_VISTA_REAL_01,MRBTS-360049,BAIONA_VISTA_REAL_3601322600101,360108,,214,7,36602,1001,597,156600,,330,70,42.7,ASI4518R39v07_700_4,0.0,4.0,10.0,1,700,0,0,IOT800-U900-L800-L900-L1800-L2600-N700-N2100,BAIONA,36013221,5,59000104735,,10000,2026-03-10T09:12:10.4822280Z,PLMN-PLMN/MRBTS-360049/NRBTS-360108/NRCELL-1001,PLMN/MRBTS/NRBTS/NRCELL,156510
nokia,GRCyL,SALAMANCA,BELEÑA EB,3700025,37,25,37 25 60 1,60,1,-5.6228623,40.749306,278568,4514238,0d3f1967a5,GNB_SA_BELENA_EB_01,MRBTS-370137,BELENA_EB_3700025600101,370091,,214,7,37613,1001,772,156600,,25,65,42.7,AQU4518R18_700_2,0.0,2.0,28.0,1,700,0,0,IOT800-G900-U900-L800-L900-L1800-N700,BELEÐA,37000251,5,60635719455,,10000,2026-03-10T09:12:10.4822280Z,PLMN-PLMN/MRBTS-370137/NRBTS-370091/NRCELL-1001,PLMN/MRBTS/NRBTS/NRCELL,156510
nokia,GRSur,ALMERIA,ATW-V 42603 AGUADULCE PLAYA,400161,4,161,4 161 68 1,68,1,-2.5657058,36.815605,538735,4074505,0d707113bd,GNB_AL_AGUADULCE_PLAYA_01,MRBTS-40177,AGUADULCE_PLAYA_0400161680103,40098,,214,7,4042,3,88,636666,,310,60,34.9,AEQE_120_6_0,0.0,4.0,36.5,1,3500,0,0,IOT800-G900-U900-L800-L900-L1800-L2100-N700-N2100-N3500,ROQUETAS DE MAR,4001613,5,6569656355,,100000,2026-03-10T09:12:10.4822280Z,PLMN-PLMN/MRBTS-40177/NRBTS-40098/NRCELL-3,PLMN/MRBTS/NRBTS/NRCELL,633984
nokia,GRSur,ALMERIA,AGUADULCE JUAN DE AUSTRIA,400269,4,269,4 269 60 1,60,1,-2.582232,36.803276,537267,4073131,0d7071a971,GNB_AL_AGUADULCE_JUAN_DE_AUSTRIA_01,MRBTS-40179,AGUADULCE_JUAN_DE_AUS_0400269600101,40102,,214,7,4042,1001,662,156600,,330,68,44.5,RRV4-65B-R6N43_700_2,0.0,2.0,16.6,1,700,0,0,IOT800-U900-L800-L900-L1800-N700-N3500,ROQUETAS DE MAR,4002691,5,6570321695,,10000,2026-03-10T09:12:10.4822280Z,PLMN-PLMN/MRBTS-40179/NRBTS-40102/NRCELL-1001,PLMN/MRBTS/NRBTS/NRCELL,156510
nokia,GRSur,SEVILLA,ALCALA MALASMAÑANAS,4101079,41,1079,41 1079 68 1,68,1,-5.8408785,37.34203,248339,4136602,0d1264c3d9,GNB_SE_ALCALA_MALASMANANAS_01,MRBTS-410032,ALCALA_MALASMANANAS_4101079680101,410080,,214,7,41114,1,105,636666,,20,90,34.9,AEQE_120_6_0,0.0,4.0,19.0,1,3500,0,0,IOT800-U900-L800-L900-L1800-L2600-N700-N2100-N3500,ALCALA DE GUADAIRA,41010791,5,67187507215,,100000,2026-03-10T09:12:10.4822280Z,PLMN-PLMN/MRBTS-410032/NRBTS-410080/NRCELL-1,PLMN/MRBTS/NRBTS/NRCELL,633984
nokia,GRSur,SEVILLA,ATW-V 44443 ALCALA DOLORES EB,4101439,41,1439,41 1439 68 1,68,1,-5.87924,37.363007,245011,4139033,0d12657517,GNB_SE_ALCALA_DOLORES_EB_01,MRBTS-410183,ALCALA_DOLORES_EB_4101439680141,410110,,214,7,41114,16041,216,632000,,15,90,30.9,,0.0,4.0,39.0,0,3500,0,0,IOT800-G900-U900-L800-L900-L1800-L2100-N700-N2100-N3500,ALCALA DE GUADAIRA,41014391,5,67192582815,,40000,2026-03-10T09:12:10.4822280Z,PLMN-PLMN/MRBTS-410183/NRBTS-410110/NRCELL-16041,PLMN/MRBTS/NRBTS/NRCELL,
nokia,GRCyL,SORIA,ARCOS DE JALON,4200015,42,15,42 15 60 1,60,1,-2.257222,41.240902,562241,4565766,0d5ca77371,GNB_SO_ARCOS_DE_JALON_01,MRBTS-420041,ARCOS_DE_JALON_4200015600101,420142,,214,7,42602,1001,171,156600,,350,70,42.7,RRV4-65D-R6_700_2,0.0,2.0,37.0,1,700,0,0,IOT800-G900-U900-L800-L900-L1800-N700,ARCOS DE JALON,42000151,5,68836075295,,10000,2026-03-10T09:12:10.4822280Z,PLMN-PLMN/MRBTS-420041/NRBTS-420142/NRCELL-1001,PLMN/MRBTS/NRBTS/NRCELL,156510
nokia,GRCyL,SORIA,ABEJAR,4200064,42,64,42 64 60 1,60,1,-2.7764227,41.793083,518576,4626827,0d44ddf669,GNB_SO_ABEJAR_01,MRBTS-420062,ABEJAR_4200064600101,420029,,214,7,42600,1001,285,156600,,340,70,42.7,ASI4518R39v07_700_5,0.0,5.0,34.0,1,700,0,0,IOT800-G900-U900-L800-L900-L1800-L2600-N700-N2100-N3500,ABEJAR,42000641,5,68817561375,,10000,2026-03-10T09:12:10.4822280Z,PLMN-PLMN/MRBTS-420062/NRBTS-420029/NRCELL-1001,PLMN/MRBTS/NRBTS/NRCELL,156510
nokia,GRLevante,VALENCIA,BENICOLET,4601276,46,1276,46 1276 60 1,60,1,-0.3408131,38.915474,730555,4310759,0d6194636b,GNB_V_BENICOLET_01,MRBTS-460623,BENICOLET_4601276600101,460731,,214,7,46613,1001,369,156600,,110,68,42.7,RRV4-65B-R6N43_700_2,2.0,2.0,28.0,1,700,0,0,IOT800-G900-U900-L800-L900-N700-N3500,BENICOLET,46012761,5,75486177055,,10000,2026-03-10T09:12:10.4822280Z,PLMN-PLMN/MRBTS-460623/NRBTS-460731/NRCELL-1001,PLMN/MRBTS/NRBTS/NRCELL,156510
nokia,GRLevante,VALENCIA,ALTO GORDO EB,4600003,46,3,46 3 64 1,64,1,-0.8158951,39.443504,687948,4368271,0d60e5cc97,GNB_V_ALTO_GORDO_EB_01,MRBTS-460820,ALTO_GORDO_EB_4600003640103,460424,,214,7,46601,2003,179,432500,,280,65,44.5,TNA490A70RI01_2100_6,3.0,6.0,21.0,1,2100,0,0,IOT800-G900-U900-L800-L900-L1800-L2600-N700-N2100,BUÐOL,46000033,5,75435888195,,15000,2026-03-10T09:12:10.4822280Z,PLMN-PLMN/MRBTS-460820/NRBTS-460424/NRCELL-2003,PLMN/MRBTS/NRBTS/NRCELL,432290
nokia,GRLevante,VALENCIA,ATW-T 63885 V/ALAMEDA CT,4600001,46,1,46 1 64 1,64,1,-0.3584839,39.4679,727235,4372033,0d6048beff,GNB_V_V_ALAMEDA_CT_02,MRBTS-460915,ALAMEDA_CT_4600001640103,460284,,214,7,46620,2003,230,432500,,240,61,47.4,RRV4-65D-R6_2100_6,3.0,6.0,62.0,1,2100,0,0,IOT800-G900-U900-L800-L900-L1800-N700-N2100-N3500,VALENCIA,46000013,5,75412950595,,15000,2026-03-10T09:12:10.4822280Z,PLMN-PLMN/MRBTS-460915/NRBTS-460284/NRCELL-2003,PLMN/MRBTS/NRBTS/NRCELL,432290
nokia,GRSur,CADIZ,PLAZA_DINAMARCA,1100761,11,761,11 761 42 1,42,1,-5.451877,36.147602,279410,4003105,0d0ceb372b,ENB_CA_PLAZA_DINAMARCA_01,MRBTS-110004,PLAZA_DINAMARCA_110076101_022,110004,,214,7,11080,22,73,2850,,180,63,46.0,6876300NG_2600_10,0.0,10.0,48.5,1,2600,0,,IOT800-U900-L800-L900-L1800-L2600-N700-N2100-N3500,ALGECIRAS,11007612,4,281610464,15.2082,20000,2026-03-10T09:12:10.4822280Z,PLMN-PLMN/MRBTS-110004/LNBTS-110004/LNCEL-22,PLMN/MRBTS/LNBTS/LNCEL,
nokia,GRSur,CADIZ,SANCTI PETRI GOLF,1100222,11,222,11 222 43 1,43,1,-6.1635323,36.354595,216117,4027928,0d0c315aa1,ENB_CA_SANCTI_PETRI_GOLF_01,MRBTS-110184,SANCTI_PETRI_GOLF_110022201_023,110184,,214,7,11070,23,69,3600,,120,65,44.8,ASI4517R1_900_4,0.0,4.0,15.0,1,900,0,,IOT800-G900-U900-L800-L900-L1800-L2600-N700-N2100,CHICLANA DE LA FRONTERA,11002222,4,282071274,17.0185,10000,2026-03-10T09:12:10.4822280Z,PLMN-PLMN/MRBTS-110184/LNBTS-110184/LNCEL-23,PLMN/MRBTS/LNBTS/LNCEL,
nokia,GRSur,CADIZ,CONIL TRAFALGAR CT,1100613,11,613,11 613 41 1,41,1,-6.086911,36.281887,222737,4019637,0d0c37f57d,ENB_CA_CONIL_TRAFALGAR_CT_01,MRBTS-110356,CONIL_TRAFALGAR_CT_110061301_020,110356,,214,7,11070,20,327,1301,,120,70,46.0,ASI4518R39v06_1800_2,0.0,4.0,21.0,1,1800,0,,IOT800-G900-U900-L800-L1800-N2100,CONIL DE LA FRONTERA,11006132,4,282511564,15.2082,20000,2026-03-10T09:12:10.4822280Z,PLMN-PLMN/MRBTS-110356/LNBTS-110356/LNCEL-20,PLMN/MRBTS/LNBTS/LNCEL,
nokia,GRLevante,CASTELLON,CS/PRIM,1200631,12,631,12 631 43 1,43,1,-0.03380846,39.982983,753276,4430083,0d5fffd5c7,ENB_CS_CS_PRIM_01,MRBTS-120061,CS_PRIM_120063101_013,120061,,214,7,12600,13,62,3600,,40,59,43.0,RRV4-65B-R6N43_900_7,0.0,7.0,36.0,1,900,0,,IOT800-U900-L800-L900-L1800-L2100-L2600-N700-N2100-N3500,CASTELLON DE LA PLANACASTELLO DE LA PLA,12006311,4,307356294,15.2185,10000,2026-03-10T09:12:10.4822280Z,PLMN-PLMN/MRBTS-120061/LNBTS-120061/LNCEL-13,PLMN/MRBTS/LNBTS/LNCEL,
nokia,GRLevante,CASTELLON,CS/CASALDUCH MERCADONA,1200497,12,497,12 497 41 1,41,1,-0.04225296,39.976425,752579,4429331,0d600083fd,ENB_CS_CASALDUCH_MERCADONA_01,MRBTS-120530,CS_CASALDUCH_MERCADON_120049701_010,120530,,214,7,12600,10,426,1301,,0,360,41.7,3D+DD_COMMSCOPE_65_0_17_1800,0.0,0.0,7.0,1,1800,1,,G1800-L1800,CASTELLON DE LA PLANA/CASTELLO DE LA PLA,12004971,4,308556904,10.9082,20000,2026-03-10T09:12:10.4822280Z,PLMN-PLMN/MRBTS-120530/LNBTS-120530/LNCEL-10,PLMN/MRBTS/LNBTS/LNCEL,
nokia,GRSur,CORDOBA,ATW-V 42944 AVE PLAZA DE TORO,1400009,14,9,14 9 41 2,41,2,-4.7946444,37.885048,342183,4194579,0d6cdf5eb7,ENB_CO_AVE_PLAZA_DE_TORO_02,MRBTS-140179,AVE_PLAZA_DE_TORO_140000902_010,140179,,214,7,14061,10,449,1301,,0,68,46.0,RRV4-65B-R6H4_1800_4,0.0,4.0,35.5,1,1800,0,,IOT800-G900-U900-L800-L900-L1800-L2600-N700-N2100-N3500,CORDOBA,14000091,4,358858344,15.2082,20000,2026-03-10T09:12:10.4822280Z,PLMN-PLMN/MRBTS-140179/LNBTS-140179/LNCEL-10,PLMN/MRBTS/LNBTS/LNCEL,
nokia,GRSur,CORDOBA,AVE SIERREZUELA,1400006,14,6,14 6 40 1,40,1,-4.568916,37.99723,362244,4206669,0d6ce4c9bf,ENB_CO_AVE_SIERREZUELA_01,MRBTS-140200,AVE_SIERREZUELA_140000601_031,140200,,214,7,14600,31,288,6400,,225,73,46.0,CCV4PX310.11R_800_9,0.0,9.0,40.0,1,800,0,,IOT800-G900-U900-L800-L1800-L2600-N2100,POSADAS,14000063,4,358912314,18.2185,10000,2026-03-10T09:12:10.4822280Z,PLMN-PLMN/MRBTS-140200/LNBTS-140200/LNCEL-31,PLMN/MRBTS/LNBTS/LNCEL,
nokia,GRGaliciaAsturias,A CORUNA,STGO/ARAGUANEY,1500064,15,64,15 64 41 1,41,1,-8.547512,42.875267,46865,4761914,0d2efe407d,ENB_C_STGO_ARAGUANEY_01,MRBTS-150052,STGO_ARAGUANEY_150006401_030,150052,,214,7,15710,30,178,1301,,240,68,46.0,6878300G_1800_10,0.0,10.0,27.0,1,1800,0,,IOT800-G900-U900-L800-L1800,SANTIAGO DE COMPOSTELA,15000643,4,384133424,15.2082,20000,2026-03-10T09:12:10.4822280Z,PLMN-PLMN/MRBTS-150052/LNBTS-150052/LNCEL-30,PLMN/MRBTS/LNBTS/LNCEL,
nokia,GRGaliciaAsturias,A CORUNA,FE/MAGDALENA 159,1500659,15,659,15 659 42 1,42,1,-8.235688,43.48243,76570,4827722,0d2e7610e3,ENB_C_FE_MAGDALENA_159_01,MRBTS-150699,SC_FE_MAGDALENA_159_150065901_012,150699,,214,7,15611,12,164,2850,,0,360,36.0,2B+26_KATHREIN_65_0_15_2600,0.0,0.0,7.0,1,2600,0,,G900-L1800-L2600,FERROL,15006591,4,385789564,5.20819,20000,2026-03-10T09:12:10.4822280Z,PLMN-PLMN/MRBTS-150699/LNBTS-150699/LNCEL-12,PLMN/MRBTS/LNBTS/LNCEL,
nokia,GRSur,GRANADA,ATW-V 45914 PINOS PUENTE,1800055,18,55,18 55 40 1,40,1,-3.7802458,37.26184,430815,4124205,0d6dffa16d,ENB_GR_PINOS_PUENTE_01,MRBTS-180177,PINOS_PUENTE_180005501_011,180177,,214,7,18040,11,300,6400,,310,67,46.0,RRV4-65D-R6_800_2,0.0,2.0,36.0,1,800,0,,IOT800-G900-U900-L800-L900-N700-N3500,PINOS PUENTE,18000551,4,461253234,18.2185,10000,2026-03-10T09:12:10.4822280Z,PLMN-PLMN/MRBTS-180177/LNBTS-180177/LNCEL-11,PLMN/MRBTS/LNBTS/LNCEL,
nokia,GRSur,HUELVA,HTL TIERRA MAR,2100482,21,482,21 482 42 1,42,1,-6.5545864,36.99844,183664,4100609,0d0e04e7d5,ENB_H_HTL_TIERRA_MAR_01,MRBTS-210188,HTL_TIERRA_MAR_210048201_032,210188,,214,7,21020,32,27,2850,,290,58,46.0,30C+26_TONGYU_58_6_18_2600,0.0,6.0,19.75,1,2600,0,,IOT800-U900-L800-L900-L1800-L2600-N700-N2100-N3500,ALMONTE,21004823,4,538081604,15.2082,20000,2026-03-10T09:12:10.4822280Z,PLMN-PLMN/MRBTS-210188/LNBTS-210188/LNCEL-32,PLMN/MRBTS/LNBTS/LNCEL,
nokia,GRSur,HUELVA,ROCIO CIGUEÑA,2100532,21,532,21 532 42 1,42,1,-6.48623,37.137455,190316,4115813,0d11fe0c41,ENB_H_ROCIO_CIGUENA_06,MRBTS-210217,ROCIO_CIGUENA_210053201_022,210217,,214,7,21021,22,186,2850,,150,69,46.0,6878300G_2600_5,0.0,5.0,11.2,1,2600,0,,IOT800-U900-U2100-L800-L900-L1800-L2100-L2600-N700,ALMONTE,21005322,4,538155744,15.2082,20000,2026-03-10T09:12:10.4822280Z,PLMN-PLMN/MRBTS-210217/LNBTS-210217/LNCEL-22,PLMN/MRBTS/LNBTS/LNCEL,
nokia,GRSur,JAEN,ARJONA URGAVO,2300351,23,351,23 351 43 1,43,1,-4.0584917,37.93579,406985,4199219,0d6c356f4f,ENB_J_ARJONA_URGAVO_01,MRBTS-230080,ARJONA_URGAVO_230035101_033,230080,,214,7,23063,33,35,3600,,270,59,46.0,RRV4-65B-R6N43_900_6,0.0,6.0,26.2,1,900,0,,IOT800-U900-L800-L900-L1800-N700-N2100-N3500,ARJONA,23003513,4,589005134,18.2185,10000,2026-03-10T09:12:10.4822280Z,PLMN-PLMN/MRBTS-230080/LNBTS-230080/LNCEL-33,PLMN/MRBTS/LNBTS/LNCEL,
nokia,GRCyL,LEON,BUEN SUCESO EB,2400075,24,75,24 75 41 1,41,1,-5.6510262,42.833008,283329,4745680,0d37a68361,ENB_LE_BUEN_SUCESO_EB_01,MRBTS-240002,BUEN_SUCESO_EB_240007501_020,240002,,214,7,24614,20,181,1301,,135,59,46.0,RRV4-65D-R6_1800_4,0.0,4.0,22.5,1,1800,0,,IOT800-G900-U900-L800-L900-L1800-N700,POLA DE GORDON (LA),24000752,4,614405324,18.2185,10000,2026-03-10T09:12:10.4822280Z,PLMN-PLMN/MRBTS-240002/LNBTS-240002/LNCEL-20,PLMN/MRBTS/LNBTS/LNCEL,
nokia,GRCyL,LEON,ALBARES RIBERA EB,2400076,24,76,24 76 43 1,43,1,-6.366519,42.61542,223882,4723605,0d374b78eb,ENB_LE_ALBARES_RIBERA_EB_01,MRBTS-240082,ALBARES_RIBERA_EB_240007601_023,240082,,214,7,24611,23,438,3600,,90,62,43.0,ASI4518R39v07_900_3,0.0,3.0,28.0,1,900,0,,IOT800-G900-U900-L800-L900-L1800-N700,TORRE DEL BIERZO,24000762,4,614610154,15.2185,10000,2026-03-10T09:12:10.4822280Z,PLMN-PLMN/MRBTS-240082/LNBTS-240082/LNCEL-23,PLMN/MRBTS/LNBTS/LNCEL,
nokia,GRCyL,LEON,DIARIO DE LEÓN,2400144,24,144,24 144 41 1,41,1,-5.6258903,42.587975,284537,4718404,0d379b406b,ENB_LE_DIARIO_DE_LEON_01,MRBTS-240255,DIARIO_DE_LEON_240014401_020,240255,,214,7,24615,20,188,1301,,160,64,47.3,6876300NG_1800_2,0.0,2.5,26.7,1,1800,0,,IOT800-G900-U900-L800-L900-L1800-N700-N3500,SAN ANDRES DEL RABANEDO,24001442,4,615053004,16.5082,20000,2026-03-10T09:12:10.4822280Z,PLMN-PLMN/MRBTS-240255/LNBTS-240255/LNCEL-20,PLMN/MRBTS/LNBTS/LNCEL,
nokia,GRCyL,LEON,VILLAFRANCA-II,2400146,24,146,24 146 42 1,42,1,-6.820875,42.604294,186556,4723954,0d30946cf1,ENB_LE_VILLAFRANCA_II_01,MRBTS-240317,VILLAFRANCA_II_240014601_012,240317,,214,7,24611,12,333,2850,,100,69,46.0,RRV4-65D-R6_2600_8,0.0,8.0,10.0,1,2600,0,,IOT800-G900-U900-L800-L900-L1800-L2600-N700-N2100,VILLAFRANCA DEL BIERZO,24001461,4,615211644,15.2082,20000,2026-03-10T09:12:10.4822280Z,PLMN-PLMN/MRBTS-240317/LNBTS-240317/LNCEL-12,PLMN/MRBTS/LNBTS/LNCEL,
nokia,GRCyL,LEON,CAMPAMENTO EL FERRAL,2400465,24,465,24 465 40 1,40,1,-5.697365,42.61906,278782,4722041,0d379db0b9,ENB_LE_CAMPAMENTO_EL_FERRAL_01,MRBTS-240341,CAMPAMENTO_EL_FERRAL_240046501_011,240341,,214,7,24615,11,75,6400,,0,65,44.8,ASI4517R1_800_3,0.0,3.0,29.15,1,800,0,,IOT800-G900-U900-L800-L900-L1800-N700-N2100,SAN ANDRES DEL RABANEDO,24004651,4,615273074,17.0185,10000,2026-03-10T09:12:10.4822280Z,PLMN-PLMN/MRBTS-240341/LNBTS-240341/LNCEL-11,PLMN/MRBTS/LNBTS/LNCEL,
nokia,GRGaliciaAsturias,LUGO,CELEIRO EB,2700061,27,61,27 61 42 1,42,1,-7.5911703,43.68263,129932,4846876,0d321aa2c9,ENB_LU_CELEIRO_EB_01,MRBTS-270002,CELEIRO_EB_270006101_032,270002,,214,7,27613,32,207,2850,,300,65,46.0,ASI4517R1_2600_3,0.0,3.0,37.0,1,2600,0,,IOT800-G900-U900-L800-L900-L1800-L2600-N700-N2100-N3500,VIVEIRO,27000613,4,691205444,15.2082,20000,2026-03-10T09:12:10.4822280Z,PLMN-PLMN/MRBTS-270002/LNBTS-270002/LNCEL-32,PLMN/MRBTS/LNBTS/LNCEL,
nokia,GRGaliciaAsturias,LUGO,ALFOZ/PEDROUZO,2700790,27,790,27 790 43 1,43,1,-7.4289517,43.499435,141922,4825815,0d318b305f,ENB_LU_ALFOZ_PEDROUZO_01,MRBTS-270222,ALFOZ_PEDROUZO_270079001_033,270222,,214,7,27613,33,283,3600,,250,65,43.0,ASI4517R1_900_3,0.0,3.0,27.3,1,900,0,,IOT800-U900-L800-L900-L1800-N700,ALFOZ,27007903,4,691768654,15.2185,10000,2026-03-10T09:12:10.4822280Z,PLMN-PLMN/MRBTS-270222/LNBTS-270222/LNCEL-33,PLMN/MRBTS/LNBTS/LNCEL,
nokia,GRSur,MALAGA,ATW-T 63550 CORTES FRONTERA LO,2900178,29,178,29 178 40 1,40,1,-5.344445,36.61741,290343,4054991,0d0d23a9b3,ENB_MA_CORTES_FRONTERA_LO_01,MRBTS-290028,CORTES_FRONTERA_LO_290017801_011,290028,,214,7,29071,11,159,6400,,90,60,43.0,RRV4-65B-R6N43_800_3,0.0,3.0,19.0,1,800,0,,IOT800-G900-U900-L800-L900-N700-N3500,CORTES DE LA FRONTERA,29001781,4,742471794,15.0185,10000,2026-03-10T09:12:10.4822280Z,PLMN-PLMN/MRBTS-290028/LNBTS-290028/LNCEL-11,PLMN/MRBTS/LNBTS/LNCEL,
nokia,GRSur,MALAGA,GUADALJAIRE,2900780,29,780,29 780 40 1,40,1,-4.463373,36.690582,369265,4061546,0d72f9e68b,ENB_MA_GUADALJAIRE_01,MRBTS-290203,GUADALJAIRE_290078001_031,290203,,214,7,29030,31,83,6400,,240,68,46.0,5980300G_800_6,0.0,6.0,15.0,1,800,0,,IOT800-U900-L800-L900-L1800-N700-N3500,MALAGA,29007803,4,742919994,18.2185,10000,2026-03-10T09:12:10.4822280Z,PLMN-PLMN/MRBTS-290203/LNBTS-290203/LNCEL-31,PLMN/MRBTS/LNBTS/LNCEL,
nokia,GRSur,MALAGA,ATW-T 63533 CAPUCHINOS CT,2900003,29,3,29 3 43 1,43,1,-4.4188714,36.731384,373308,4066013,0d72f7b813,ENB_MA_CAPUCHINOS_CT_01,MRBTS-290232,CAPUCHINOS_CT_290000301_023,290232,,214,7,29101,23,71,3600,,130,60,44.8,RRV4-65B-R6H4-V2_900_5,0.0,5.0,23.8,1,900,0,,IOT800-G900-U900-L800-L900-L1800-L2600-N700-N2100-N3500,MALAGA,29000032,4,742994154,17.0185,10000,2026-03-10T09:12:10.4822280Z,PLMN-PLMN/MRBTS-290232/LNBTS-290232/LNCEL-23,PLMN/MRBTS/LNBTS/LNCEL,
nokia,GRSur,MALAGA,ATW-V 44212 BENAJARAFE EB,2900511,29,511,29 511 41 2,41,2,-4.2097178,36.719723,391968,4064463,0d7245688d,ENB_MA_BENAJARAFE_EB_02,MRBTS-290272,BENAJARAFE_EB_290051102_030,290272,,214,7,29051,30,173,1301,,320,68,46.0,RRV4-65B-R6N43_1800_3,0.0,3.0,30.0,1,1800,0,,IOT800-G900-U900-L800-L900-L1800-L2600-N700-N2100-N3500,VELEZ-MALAGA,29005113,4,743096624,15.2082,20000,2026-03-10T09:12:10.4822280Z,PLMN-PLMN/MRBTS-290272/LNBTS-290272/LNCEL-30,PLMN/MRBTS/LNBTS/LNCEL,
nokia,GRSur,MALAGA,TMAR PASEO LARIOS,2901182,29,1182,29 1182 40 1,40,1,-4.093967,36.741577,402333,4066763,0d7247bc8b,ENB_MA_TMAR_PASEO_LARIOS_02,MRBTS-290282,TMAR_PASEO_LARIOS_290118201_011,290282,,214,7,29050,11,133,6400,,0,63,44.8,RRZZ-65B-R4_800_5,0.0,5.0,27.5,1,800,0,,IOT800-G900-U900-L800-L900-L1800-L2600-N700-N2100-N3500,VELEZ-MALAGA,29011821,4,743122034,17.0185,10000,2026-03-10T09:12:10.4822280Z,PLMN-PLMN/MRBTS-290282/LNBTS-290282/LNCEL-11,PLMN/MRBTS/LNBTS/LNCEL,
nokia,GRSur,MALAGA,ATW-V 44100 H. BARCELO GMINA,2901328,29,1328,29 1328 40 1,40,1,-5.006446,36.483395,320263,4039438,0d732a6823,ENB_MA_H_BARCELO_GMINA_02,MRBTS-290402,H_BARCELO_GMINA_290132801_031,290402,,214,7,29040,31,469,6400,,215,67,44.8,6878300NG_800_4,0.0,4.0,17.0,1,800,0,,IOT800-G900-U900-L800-L900-L1800-N700,MARBELLA,29013283,4,743429434,17.0185,10000,2026-03-10T09:12:10.4822280Z,PLMN-PLMN/MRBTS-290402/LNBTS-290402/LNCEL-31,PLMN/MRBTS/LNBTS/LNCEL,
nokia,GRSur,MALAGA,TRIANA,2901310,29,1310,29 1310 40 1,40,1,-4.1830177,36.81564,394484,4075074,0d7243980f,ENB_MA_TRIANA_01,MRBTS-290754,TRIANA_290131001_021,290754,,214,7,29051,21,267,6400,,75,65,46.0,CV3PX308R1_800_5,0.0,5.0,22.0,1,800,0,,IOT800-G900-U900-L800,VELEZ-MALAGA,29013102,4,744330454,18.2185,10000,2026-03-10T09:12:10.4822280Z,PLMN-PLMN/MRBTS-290754/LNBTS-290754/LNCEL-21,PLMN/MRBTS/LNBTS/LNCEL,
nokia,GRLevante,MURCIA,1º MAYO EB,3000106,30,106,30 106 41 2,41,2,-1.1179181,37.987534,665277,4206103,0d6382130d,ENB_MU_1_MAYO_EB_02,MRBTS-300465,1_MAYO_EB_300010602_020,300465,,214,7,30642,20,162,1301,,120,68,46.0,RRV4-65B-R6N43_1800_4,3.0,4.0,37.0,1,1800,0,,IOT800-G900-U900-L800-L900-L1800-L2600-N700-N2100-N3500,MURCIA,30001062,4,769190604,15.2082,20000,2026-03-10T09:12:10.4822280Z,PLMN-PLMN/MRBTS-300465/LNBTS-300465/LNCEL-20,PLMN/MRBTS/LNBTS/LNCEL,
nokia,GRLevante,ALICANTE,ELCHE/CONVENTO ORANGE,302444,3,2444,3 2444 40 1,40,1,-0.6955988,38.267113,701597,4237964,0d63b68b59,ENB_A_ELCHE_CONVENTO_ORANGE_01,MRBTS-30114,ELCHE_CONVENTO_ORANGE_030244401_021,30114,,214,7,3602,21,313,6400,,105,61,43.0,3C+DD_COMMSCOPE_65_12_16_800,0.0,12.0,34.5,1,800,0,,IOT800-G900-U900-L800-L900-L1800-L2100-L2600-N700-N3500,ELCHEELX,3024442,4,77092054,13.2185,10000,2026-03-10T09:12:10.4822280Z,PLMN-PLMN/MRBTS-30114/LNBTS-30114/LNCEL-21,PLMN/MRBTS/LNBTS/LNCEL,
nokia,GRLevante,ALICANTE,SANTA POLA/POLA PLAYA,301950,3,1950,3 1950 40 1,40,1,-0.55042624,38.189835,714526,4229714,0d624c4cbf,ENB_A_SANTA_POLA_POLA_PLAYA_02,MRBTS-30445,SANTA_POLA_POLA_PLAYA_030195001_031,30445,,214,7,3600,31,391,6400,,290,63,44.8,3C+DD_COMMSCOPE_65_12_16_800,0.0,12.0,8.5,1,800,0,,IOT800-U900-L800-L900-L1800-L2600-N700-N2100-N3500,SANTA POLA,3019503,4,77939514,17.0185,10000,2026-03-10T09:12:10.4822280Z,PLMN-PLMN/MRBTS-30445/LNBTS-30445/LNCEL-31,PLMN/MRBTS/LNBTS/LNCEL,
nokia,GRLevante,ALICANTE,ATW-V 42376 ALCOY/ALAMEDA,300261,3,261,3 261 41 2,41,2,-0.46754768,38.710846,720195,4287734,0d61863f3d,ENB_A_ALCOY_ALAMEDA_02,MRBTS-30533,ALCOY_ALAMEDA_030026102_030,30533,,214,7,3610,30,23,1301,,240,68,46.0,RRV4-65B-R6N43_1800_3,2.0,3.0,32.5,1,1800,0,,IOT800-G900-U900-L800-L900-L1800-N700-N3500,ALCOY/ALCOI,3002613,4,78164784,15.2082,20000,2026-03-10T09:12:10.4822280Z,PLMN-PLMN/MRBTS-30533/LNBTS-30533/LNCEL-30,PLMN/MRBTS/LNBTS/LNCEL,
nokia,GRLevante,ALICANTE,ATW-T 62817 ELCHE/CARRUS CT,300008,3,8,3 8 41 2,41,2,-0.70891577,38.2696,700425,4238211,0d63b6f91d,ENB_A_ELCHE_CARRUS_CT_02,MRBTS-30592,ELCHE_CARRUS_CT_030000802_020,30592,,214,7,3602,20,160,1301,,80,57,46.0,30C+DD_TELNET_57_10_16_1800,2.0,9.0,29.0,1,1800,0,,IOT800-G900-U900-L800-L1800-N2100,ELCHE/ELX,3000082,4,78315724,15.2082,20000,2026-03-10T09:12:10.4822280Z,PLMN-PLMN/MRBTS-30592/LNBTS-30592/LNCEL-20,PLMN/MRBTS/LNBTS/LNCEL,
nokia,GRGaliciaAsturias,ASTURIAS,JOMEZANA MINI EB,3300056,33,56,33 56 41 1,41,1,-5.8382587,43.063755,268891,4771805,0d36fdb4df,ENB_O_JOMEZANA_MINI_EB_01,MRBTS-330204,JOMEZANA_MINI_EB_330005601_010,330204,,214,7,33131,10,228,1301,,0,59,46.0,RRV4-65D-R6_1800_5,0.0,5.0,17.0,1,1800,0,,IOT800-G900-U900-L800-L1800,LENA,33000561,4,845322344,15.2082,20000,2026-03-10T09:12:10.4822280Z,PLMN-PLMN/MRBTS-330204/LNBTS-330204/LNCEL-10,PLMN/MRBTS/LNBTS/LNCEL,
nokia,GRGaliciaAsturias,ASTURIAS,NUEVA LOTERO,3302333,33,2333,33 2333 43 1,43,1,-5.788896,43.46111,274384,4815801,0d3688e66d,ENB_O_NUEVA_LOTERO_01,MRBTS-330536,NUEVA_LOTERO_330233301_013,330536,,214,7,33121,13,298,3600,,5,59,44.8,RRV4-65B-R6N43_900_4,3.0,4.0,30.0,1,900,0,,IOT800-U900-L800-L900-L1800-N700,LLANERA,33023331,4,846172294,17.0185,10000,2026-03-10T09:12:10.4822280Z,PLMN-PLMN/MRBTS-330536/LNBTS-330536/LNCEL-13,PLMN/MRBTS/LNBTS/LNCEL,
nokia,GRGaliciaAsturias,PONTEVEDRA,VIGO/FLORIDA,3600113,36,113,36 113 42 1,42,1,-8.734625,42.21928,26629,4690070,0d2f620835,ENB_PO_VIGO_FLORIDA_01,MRBTS-360000,VIGO_FLORIDA_360011301_022,360000,,214,7,36600,22,63,2850,,135,65,46.0,ASI4517R1_2600_6,0.0,6.0,33.03,1,2600,0,,IOT800-G900-U900-L800-L1800-L2600,VIGO,36001132,4,921600224,15.2082,20000,2026-03-10T09:12:10.4822280Z,PLMN-PLMN/MRBTS-360000/LNBTS-360000/LNCEL-22,PLMN/MRBTS/LNBTS/LNCEL,
nokia,GRGaliciaAsturias,PONTEVEDRA,CARRIL/QUINTEIRO,3601083,36,1083,36 1083 40 1,40,1,-8.759199,42.61903,27621,4734614,0d2f16ba7f,ENB_PO_CARRIL_QUINTEIRO_01,MRBTS-360118,CARRIL_QUINTEIRO_360108301_021,360118,,214,7,36613,21,444,6400,,180,65,44.8,ASI4517R1_800_4,0.0,4.0,27.0,1,800,0,,IOT800-G900-U900-L800-L900-L1800-L2600-N700-N2100-N3500,VILAGARCIA DE AROUSA,36010832,4,921902294,17.0185,10000,2026-03-10T09:12:10.4822280Z,PLMN-PLMN/MRBTS-360118/LNBTS-360118/LNCEL-21,PLMN/MRBTS/LNBTS/LNCEL,
nokia,GRGaliciaAsturias,PONTEVEDRA,VILANOVA/TREMOEDO,3601970,36,1970,36 1970 41 1,41,1,-8.771521,42.554134,26117,4727474,0d2f14ecdd,ENB_PO_VILANOVA_TREMOEDO_01,MRBTS-360379,VILANOVA_TREMOEDO_360197001_030,360379,,214,7,36613,30,463,1301,,200,63,46.0,23A_TELNET_63_4_17_1800,0.0,4.0,39.0,1,1800,0,,IOT800-G900-U900-L800-L900-L1800-N700-N2100-N3500,VILANOVA DE AROUSA,36019703,4,922570544,15.2082,20000,2026-03-10T09:12:10.4822280Z,PLMN-PLMN/MRBTS-360379/LNBTS-360379/LNCEL-30,PLMN/MRBTS/LNBTS/LNCEL,
nokia,GRSur,ALMERIA,GARRUCHA HOSTAL MANOLO,400671,4,671,4 671 41 1,41,1,-1.819867,37.192,604741,4116824,0d7b29f0d5,ENB_AL_GARRUCHA_HOSTAL_MANOLO_01,MRBTS-40236,GARRUCHA_HOSTAL_MANOL_040067101_020,40236,,214,7,4043,20,282,1301,,70,69,44.8,ASI4518R39v07_1800_3,0.0,3.0,20.5,1,1800,0,,IOT800-U900-L800-L900-L1800-N700-N3500,GARRUCHA,4006712,4,103004364,14.0082,20000,2026-03-10T09:12:10.4822280Z,PLMN-PLMN/MRBTS-40236/LNBTS-40236/LNCEL-20,PLMN/MRBTS/LNBTS/LNCEL,
nokia,GRSur,SEVILLA,RESIDENCIAL ANDALUCIA,4100785,41,785,41 785 41 1,41,1,-5.919763,37.388493,241509,4141972,0d126f40a1,ENB_SE_RESIDENCIAL_ANDALUCIA_01,MRBTS-410201,RESIDENCIAL_ANDALUCIA_410078501_020,410201,,214,7,41130,20,175,1301,,150,63,46.0,APE4517R0v06_1800_6,0.0,6.0,31.17,1,1800,0,,IOT800-U900-L800-L900-L1800-N700-N2100-N3500,SEVILLA,41007852,4,1050114764,15.2082,20000,2026-03-10T09:12:10.4822280Z,PLMN-PLMN/MRBTS-410201/LNBTS-410201/LNCEL-20,PLMN/MRBTS/LNBTS/LNCEL,
nokia,GRSur,SEVILLA,POLIGONO HYTASA,4101068,41,1068,41 1068 43 1,43,1,-5.959243,37.37041,237950,4140074,0d126ef261,ENB_SE_POLIGONO_HYTASA_01,MRBTS-410211,POLIGONO_HYTASA_410106801_013,410211,,214,7,41130,13,220,3600,,40,62,44.8,RRV4-65D-R6_900_6,0.0,6.0,20.3,1,900,0,,IOT800-U900-L800-L900-L1800-L2600-N700-N2100-N3500,SEVILLA,41010681,4,1050140294,17.0185,10000,2026-03-10T09:12:10.4822280Z,PLMN-PLMN/MRBTS-410211/LNBTS-410211/LNCEL-13,PLMN/MRBTS/LNBTS/LNCEL,
nokia,GRSur,SEVILLA,ESTADIO OLÍMPICO EB,4100444,41,444,41 444 42 2,42,2,-6.005614,37.416267,234005,4145293,0d126b9343,ENB_SE_ESTADIO_OLIMPICO_EB_03,MRBTS-411200,ESTADIO_OLIMPICO_EB_410044402_082,411200,,214,7,41091,82,103,2850,,0,31,40.0,,0.0,0.0,30.0,1,2600,1,,U2100-L1800-L2100-L2600-N2100-N3500,SEVILLA,41004448,4,1052672824,9.20819,20000,2026-03-10T09:12:10.4822280Z,PLMN-PLMN/MRBTS-411200/LNBTS-411200/LNCEL-82,PLMN/MRBTS/LNBTS/LNCEL,
nokia,GRLevante,VALENCIA,V/BARON DE CARCER,4603305,46,3305,46 3305 41 1,41,1,-0.38006592,39.473217,725361,4372569,0d604f4e7b,ENB_V_BARON_DE_CARCER_2_01,MRBTS-460246,BARON_DE_CARCER_2_460330501_010,460246,,214,7,46620,10,420,1301,,45,71,46.0,24B+26_COMMSCOPE_68_8_17_1800,0.0,8.0,41.5,1,1800,0,,IOT800-U900-L800-L900-L1800-N700-N3500,VALENCIA,46033051,4,1178229864,15.2082,20000,2026-03-10T09:12:10.4822280Z,PLMN-PLMN/MRBTS-460246/LNBTS-460246/LNCEL-10,PLMN/MRBTS/LNBTS/LNCEL,
nokia,GRLevante,VALENCIA,GANDIA ALFARO,4601198,46,1198,46 1198 40 2,40,2,-0.17883883,38.968914,744417,4317113,0d61e837a3,ENB_V_GANDIA_ALFARO_02,MRBTS-460835,GANDIA_ALFARO_460119802_011,460835,,214,7,46611,11,324,6400,,0,67,43.0,6878300G_800_3,0.0,3.0,28.0,1,800,0,,IOT800-G900-U900-L800-L1800-N2100,GANDIA,46011981,4,1179737714,15.0185,10000,2026-03-10T09:12:10.4822280Z,PLMN-PLMN/MRBTS-460835/LNBTS-460835/LNCEL-11,PLMN/MRBTS/LNBTS/LNCEL,
nokia,GRCyL,VALLADOLID,ATW-V 44962 ALMACENES CAMARA,4700429,47,429,47 429 40 1,40,1,-4.7053556,41.631004,357951,4610213,0d4712e717,ENB_VA_ALMACENES_CAMARA_02,MRBTS-470122,ALMACENES_CAMARA_470042901_021,470122,,214,7,47600,21,2,6400,,160,67,43.0,ASI4518R39v07_800_3,0.0,3.0,27.0,1,800,0,,IOT800-G900-U900-L800-L900-L1800-N700-N3500,VALLADOLID,47004292,4,1203512534,15.0185,10000,2026-03-10T09:12:10.4822280Z,PLMN-PLMN/MRBTS-470122/LNBTS-470122/LNCEL-21,PLMN/MRBTS/LNBTS/LNCEL,
nokia,GRCyL,VALLADOLID,ATW-V 44974 ZARATAN EB,4700097,47,97,47 97 40 1,40,1,-4.799204,41.665295,350213,4614179,0d477208b7,ENB_VA_ZARATAN_EB_02,MRBTS-470145,ZARATAN_EB_470009701_021,470145,,214,7,47601,21,163,6400,,100,67,43.0,RRV4-65D-R6_800_8,0.0,8.0,28.37,1,800,0,,IOT800-G900-U900-L800-L900-L1800-N700-N2100-N3500,ZARATAN,47000972,4,1203571414,15.0185,10000,2026-03-10T09:12:10.4822280Z,PLMN-PLMN/MRBTS-470145/LNBTS-470145/LNCEL-21,PLMN/MRBTS/LNBTS/LNCEL,
nokia,GRCyL,AVILA,EMBALSE BURGUILLO,500050,5,50,5 50 40 2,40,2,-4.5543065,40.43909,368176,4477654,0d40509985,ENB_AV_EMBALSE_BURGUILLO_01,MRBTS-50044,EMBALSE_BURGUILLO_050005002_021,50044,,214,7,5600,21,453,6400,,120,63,44.8,RRZZ-65B-R4_800_4,1.0,4.0,34.0,1,800,0,,IOT800-G900-U900-L800-L900-L1800-N700-N2100-N3500,BARRACO (EL),5000502,4,128112854,17.0185,10000,2026-03-10T09:12:10.4822280Z,PLMN-PLMN/MRBTS-50044/LNBTS-50044/LNCEL-21,PLMN/MRBTS/LNBTS/LNCEL,
nokia,GRCyL,AVILA,ATW  38621 MUÑOSANCHO,500205,5,205,5 205 40 1,40,1,-5.0397806,40.91967,328238,4531843,0d40a0b7f7,ENB_AV_MUNOSANCHO_01,MRBTS-50117,MUNOSANCHO_050020501_011,50117,,214,7,5601,11,424,6400,,80,93,43.0,25+DD_KATHREIN_93_4_15_800,0.0,4.0,14.0,1,800,0,,IOT800-G900-U900-L800,MUÐOSANCHO,5002051,4,128299634,15.0185,10000,2026-03-10T09:12:10.4822280Z,PLMN-PLMN/MRBTS-50117/LNBTS-50117/LNCEL-11,PLMN/MRBTS/LNBTS/LNCEL,
nokia,GRLevante,ILLES BALEARS,ME/CALA GALDANA EB,700069,7,69,7 69 43 1,43,1,3.9617298,39.937336,1095052,4444072,12be1dbc2f,ENB_IB_ME_CALA_GALDANA_EB_01,MRBTS-70245,ME_CALA_GALDANA_EB_070006901_013,70245,,214,7,7740,13,465,3600,,330,59,43.0,RRV4-65B-R6N43_900_5,0.0,5.0,35.0,1,900,0,,IOT800-G900-U900-L800-L900-L1800-L2600-N700-N2100-N3500,FERRERIES,7000691,4,179827334,15.2185,10000,2026-03-10T09:12:10.4822280Z,PLMN-PLMN/MRBTS-70245/LNBTS-70245/LNCEL-13,PLMN/MRBTS/LNBTS/LNCEL,
nokia,GRLevante,VALENCIA,GANDIA CT,4600057,46,57,,,,-0.18466748,38.968605,743913,4317063,0d61e83509,ENB_V_GANDIA_CT_02,MRBTS-460905,GANDIA_CT_460005701_221_B1_SP,460905,,214,7,46611,221,323,50,,340,61,44.8,,0.0,4.0,36.0,1,2100,0,,IOT800-G900-U900-L800-L900-L1800-L2100-N700-N2100-N3500,GANDIA,46000571,4,1179919014,17.0185,10000,2026-03-10T09:12:10.4822280Z,PLMN-PLMN/MRBTS-460905/LNBTS-460905/LNCEL-221,PLMN/MRBTS/LNBTS/LNCEL,
